City,Lat,Lng,Max Temp,Humidity,Cloudiness,Wind Speed,Country,Date
sur,22.57,59.53,74.95,59,0,7.7,OM,1607313001
ixtapa,20.7,-105.2,72.0,88,90,3.47,MX,1607313001
rikitea,-23.12,-134.97,76.96,80,0,15.35,PF,1607313001
gerash,27.67,54.14,57.2,87,40,6.93,IR,1607313001
hobart,-42.88,147.33,60.8,38,75,19.46,AU,1607313001
ilulissat,69.22,-51.1,21.2,57,100,20.8,GL,1607313001
bamora,24.06,78.09,73.72,32,0,1.28,IN,1607313001
constitucion,-35.33,-72.42,52.39,90,66,4.74,CL,1607313001
arraial do cabo,-22.97,-42.03,75.2,100,75,11.41,BR,1607313001
wainwright,52.84,-110.86,28.4,74,1,4.7,CA,1607313001
ushuaia,-54.8,-68.3,48.2,93,90,13.87,AR,1607313001
hovd,48.01,91.64,0.91,81,5,0.49,MN,1607313001
taltal,-25.4,-70.48,59.45,76,31,0.22,CL,1607313001
atuona,-9.8,-139.03,78.87,77,5,17.92,PF,1607313001
hithadhoo,-0.6,73.08,82.33,79,53,15.23,MV,1607313001
albany,42.6,-73.97,30.0,58,11,3.0,US,1607313001
zhigansk,66.77,123.37,-12.06,89,98,11.68,RU,1607313001
bud,39.45,-86.18,32.0,80,90,5.82,US,1607313001
invermere,50.52,-116.04,27.93,86,6,1.48,CA,1607313001
bluff,-46.6,168.33,60.96,60,24,14.63,NZ,1607313001
labuhan,-6.88,112.21,81.43,83,100,19.48,ID,1607313001
valdivia,-39.81,-73.25,51.8,93,89,2.24,CL,1607313001
tabou,4.42,-7.35,77.76,81,5,4.32,CI,1607313001
kautokeino,69.01,23.04,17.42,96,97,5.23,NO,1607313001
mar del plata,-38.0,-57.56,61.0,76,0,6.93,AR,1607313001
tuatapere,-46.13,167.68,67.1,41,4,8.93,NZ,1607313001
laguna,38.42,-121.42,48.99,65,1,4.38,US,1607313001
norman wells,65.28,-126.83,1.4,91,75,2.24,CA,1607313001
new norfolk,-42.78,147.06,60.01,64,96,5.01,AU,1607313001
bogande,12.97,-0.14,71.06,31,33,4.41,BF,1607313001
carnarvon,-24.87,113.63,86.0,45,0,14.99,AU,1607313001
yar-sale,66.83,70.83,30.11,95,77,23.98,RU,1607313001
east london,-33.02,27.91,68.0,94,90,18.34,ZA,1607313001
kapaa,22.08,-159.32,80.6,69,90,2.15,US,1607313001
hammerfest,70.66,23.68,28.4,86,40,17.22,NO,1607313001
mount gambier,-37.83,140.77,59.0,44,40,20.8,AU,1607313001
de-kastri,51.47,140.78,18.05,80,1,6.67,RU,1607313001
hermanus,-34.42,19.23,66.0,86,98,10.0,ZA,1607313001
te anau,-45.42,167.72,62.73,48,14,10.96,NZ,1607313001
menongue,-14.66,17.69,62.6,74,98,5.17,AO,1607313001
wiang sa,8.64,99.37,87.8,70,20,11.41,TH,1607313001
ust-nera,64.57,143.2,-28.5,75,98,1.81,RU,1607313001
khatanga,71.97,102.5,-19.61,88,81,3.15,RU,1607313001
castro,-24.79,-50.01,60.03,97,98,6.96,BR,1607313001
mataura,-46.19,168.86,67.35,39,80,9.66,NZ,1607313001
severo-kurilsk,50.68,156.12,27.99,89,100,8.72,RU,1607313001
olsztyn,53.78,20.49,33.8,80,90,16.11,PL,1607313001
pangnirtung,66.15,-65.71,0.5,87,94,1.72,CA,1607313001
lieksa,63.32,30.02,36.16,90,100,15.43,FI,1607313001
hilo,19.73,-155.09,78.8,69,40,6.93,US,1607313001
cape town,-33.93,18.42,64.99,93,40,12.75,ZA,1607313001
honiara,-9.43,159.95,89.6,70,20,8.05,SB,1607313001
nishihara,26.18,127.76,75.2,78,75,12.75,JP,1607313001
tuktoyaktuk,69.45,-133.04,-4.0,83,75,9.17,CA,1607313001
sioux lookout,50.1,-91.92,24.8,92,90,2.24,CA,1607313001
lagoa,39.05,-27.98,61.03,68,73,8.66,PT,1607313001
mahebourg,-20.41,57.7,78.8,83,40,8.05,MU,1607313001
punta arenas,-53.15,-70.92,59.0,67,100,16.11,CL,1607313001
geraldton,-28.77,114.6,98.6,12,0,18.34,AU,1607313001
marawi,8.0,124.29,82.99,80,95,5.01,PH,1607313001
bredasdorp,-34.53,20.04,64.4,88,100,19.46,ZA,1607313001
clyde river,70.47,-68.59,5.0,77,90,8.05,CA,1607313001
kaitangata,-46.28,169.85,63.0,67,39,8.99,NZ,1607313001
faanui,-16.48,-151.75,80.62,74,94,10.25,PF,1607313001
yumen,40.28,97.2,14.49,89,100,7.47,CN,1607313001
ndele,8.41,20.65,70.75,26,91,4.61,CF,1607313001
pimentel,-6.84,-79.93,66.45,86,100,11.97,PE,1607313001
polson,47.69,-114.16,27.0,90,10,1.86,US,1607313001
nikolskoye,59.7,30.79,30.0,58,0,6.71,RU,1607313001
puerto ayora,-0.74,-90.35,72.0,92,66,1.99,EC,1607313001
busselton,-33.65,115.33,79.0,30,0,4.5,AU,1607313001
ponta do sol,32.67,-17.1,59.0,77,20,4.7,PT,1607313001
port blair,11.67,92.75,82.69,67,5,14.7,IN,1607313001
carutapera,-1.2,-46.02,78.78,82,99,7.2,BR,1607313001
san policarpo,12.18,125.51,83.86,80,100,9.71,PH,1607313001
katsuura,35.13,140.3,61.0,71,20,3.36,JP,1607313001
chapais,49.78,-74.85,14.0,92,90,11.41,CA,1607313001
kibre mengist,5.88,38.98,57.61,89,17,2.55,ET,1607313001
longyearbyen,78.22,15.64,21.2,85,90,24.16,SJ,1607313001
inirida,3.87,-67.92,71.53,98,100,1.66,CO,1607313001
artigas,-30.4,-56.47,58.39,93,1,9.69,UY,1607313001
paka,4.64,103.44,84.2,74,20,9.17,MY,1607313001
georgetown,5.41,100.34,82.4,74,20,3.36,MY,1607313001
udimskiy,61.14,45.91,21.04,94,29,9.8,RU,1607313001
ohafia,5.62,7.83,71.91,96,57,1.99,NG,1607313001
dunedin,-45.87,170.5,60.01,73,63,21.0,NZ,1607313001
korla,41.76,86.15,29.23,81,68,2.3,CN,1607313001
sola,-13.88,167.55,91.4,66,40,5.82,VU,1607313001
iwanai,42.97,140.51,35.26,82,97,13.15,JP,1607313001
tambura,5.6,27.47,70.92,35,38,2.04,SS,1607313001
olinda,-8.01,-34.86,77.0,73,40,8.05,BR,1607313001
avarua,-21.21,-159.78,82.4,78,96,13.87,CK,1607313001
lamu,-2.27,40.9,77.0,94,20,5.88,KE,1607313001
adrar,20.5,-10.07,55.83,53,100,7.74,MR,1607313001
port alfred,-33.59,26.89,69.22,90,100,26.28,ZA,1607313001
opuwo,-18.06,13.84,62.47,31,0,3.53,NA,1607313001
qaanaaq,77.48,-69.36,-0.8,74,99,3.18,GL,1607313001
krapivinskiy,55.0,86.81,3.2,84,75,8.95,RU,1607313001
tasiilaq,65.61,-37.64,28.4,50,98,11.41,GL,1607313001
broome,42.25,-75.83,28.99,73,90,10.29,US,1607313001
hof,50.32,11.92,42.01,93,100,7.0,DE,1607313001
tura,25.52,90.22,73.54,57,0,0.98,IN,1607313001
pangkalanbuun,-2.68,111.62,90.84,56,86,3.24,ID,1607313001
vila franca do campo,37.72,-25.43,55.4,82,40,4.7,PT,1607313001
voh,-20.97,164.7,87.76,54,63,5.82,NC,1607313001
manokwari,-0.87,134.08,80.13,82,100,7.63,ID,1607313001
paamiut,61.99,-49.67,30.79,92,93,11.74,GL,1607313001
klyuchi,52.27,79.17,0.73,92,79,3.53,RU,1607313001
camargo,27.67,-105.17,43.14,57,0,1.01,MX,1607313001
katherine,-14.47,132.27,93.2,44,49,8.05,AU,1607313001
thinadhoo,0.53,72.93,82.71,77,100,14.0,MV,1607313001
camopi,3.17,-52.32,71.71,97,71,2.17,GF,1607313001
bambous virieux,-20.34,57.76,80.01,83,40,8.05,MU,1607313001
verkhoyansk,67.54,133.38,-35.64,75,0,0.34,RU,1607313001
kimbe,-5.55,150.14,88.29,60,90,6.42,PG,1607313001
tervel,43.75,27.4,39.0,90,98,5.01,BG,1607313001
khovu-aksy,51.13,93.6,-1.35,86,32,2.46,RU,1607313001
butaritari,3.07,172.79,80.82,79,8,13.4,KI,1607313001
krasnyy yar,46.53,48.35,6.8,77,0,13.42,RU,1607313001
upernavik,72.79,-56.15,22.8,97,100,6.02,GL,1607313001
lata,40.16,-8.33,53.01,96,83,5.99,PT,1607313001
esperance,-33.87,121.9,66.2,52,24,14.99,AU,1607313001
morant bay,17.88,-76.41,80.6,74,20,10.29,JM,1607313001
bereda,43.27,-7.54,48.99,100,100,10.0,ES,1607313001
saskylakh,71.92,114.08,-9.71,89,100,5.39,RU,1607313001
hobyo,5.35,48.53,79.23,70,28,10.96,SO,1607313001
narsaq,60.92,-46.05,26.6,58,4,11.41,GL,1607313001
alpena,45.06,-83.43,28.99,74,90,2.42,US,1607313001
quelimane,-17.88,36.89,78.8,88,75,4.05,MZ,1607313001
tarakan,3.3,117.63,83.68,71,100,3.58,ID,1607313001
jurmala,56.97,23.77,32.0,85,0,14.99,LV,1607313001
santarem,-2.44,-54.71,78.8,88,0,3.36,BR,1607313001
barrow,71.29,-156.79,-0.4,77,1,9.17,US,1607313001
fortuna,40.6,-124.16,46.99,93,38,3.74,US,1607313001
tazovskiy,67.47,78.7,15.53,97,98,9.28,RU,1607313001
kropotkin,45.44,40.58,28.85,91,72,22.62,RU,1607313001
naze,28.37,129.48,73.4,88,75,11.41,JP,1607313001
calbuco,-41.77,-73.13,50.0,100,75,6.93,CL,1607313001
souillac,-20.52,57.52,78.8,83,40,8.05,MU,1607313001
cotonou,6.37,2.42,79.86,85,2,9.73,BJ,1607313001
cabo san lucas,22.89,-109.91,66.2,72,5,4.7,MX,1607313001
lodja,-3.48,23.43,67.44,97,26,0.94,CD,1607313001
lavrentiya,65.58,-171.0,15.06,93,6,10.67,RU,1607313001
aginskoye,51.1,114.53,12.74,84,0,22.77,RU,1607313001
codrington,-38.27,141.97,57.22,61,25,20.89,AU,1607313001
aksu,41.12,80.26,27.66,83,98,0.56,CN,1607313001
tilichiki,60.47,166.1,14.94,98,100,11.14,RU,1607313001
jieshi,22.81,115.83,70.0,62,1,1.01,CN,1607313001
vilyuysk,63.76,121.62,-10.97,90,99,6.53,RU,1607313001
luderitz,-26.65,15.16,57.34,85,0,11.03,NA,1607313001
progreso,21.28,-89.67,75.2,88,5,5.82,MX,1607313001
tiksi,71.69,128.87,-13.23,89,100,2.75,RU,1607313001
bengkulu,-3.8,102.27,84.61,66,22,7.23,ID,1607313001
provideniya,64.38,-173.3,17.6,72,20,4.47,RU,1607313001
khorixas,-20.37,14.97,61.02,48,0,2.95,NA,1607313001
montepuez,-13.13,39.0,74.46,80,86,4.92,MZ,1607313001
fez,34.04,-5.0,50.0,81,75,14.99,MA,1607313001
sioux falls,43.55,-96.7,28.4,92,1,6.51,US,1607313001
biak,-0.91,122.88,84.81,69,100,1.81,ID,1607313001
abu samrah,35.3,37.18,48.54,83,0,2.1,SY,1607313001
torbay,47.67,-52.73,51.8,93,90,12.75,CA,1607313001
mildura,-34.2,142.15,66.2,34,90,17.22,AU,1607313001
saint anthony,45.02,-93.22,35.01,86,90,2.39,US,1607313001
kilembe,0.2,30.0,60.17,67,23,4.12,UG,1607313001
sao felix do xingu,-6.64,-51.99,72.82,93,100,0.34,BR,1607313001
kahului,20.89,-156.47,82.4,58,40,6.93,US,1607313001
la ronge,55.1,-105.28,32.0,96,21,3.36,CA,1607313001
natal,-5.79,-35.21,78.8,83,75,9.17,BR,1607313001
wattegama,6.8,81.48,82.4,88,20,1.12,LK,1607313001
lebu,-37.62,-73.65,52.75,98,58,9.93,CL,1607313001
vardo,70.37,31.11,33.26,89,100,3.91,NO,1607313001
vaini,-21.2,-175.2,82.4,83,75,11.41,TO,1607313001
port lincoln,-34.73,135.87,60.33,53,61,22.62,AU,1607313001
ribeira grande,38.52,-28.7,60.26,65,95,4.74,PT,1607313001
alofi,-19.06,-169.92,86.0,70,75,17.22,NU,1607313001
homer,59.64,-151.55,33.01,92,90,14.12,US,1607313001
airai,-8.93,125.41,75.83,71,99,3.2,TL,1607313001
thompson,55.74,-97.86,21.2,92,90,5.82,CA,1607313001
salalah,17.02,54.09,69.8,83,20,4.7,OM,1607313001
mineral wells,32.81,-98.11,46.99,54,1,5.82,US,1607313001
yushu,44.8,126.53,11.12,93,0,10.16,CN,1607313001
cidreira,-30.18,-50.21,66.07,87,94,19.08,BR,1607313001
tete,-16.16,33.59,73.4,100,75,6.93,MZ,1607313001
atar,20.52,-13.05,59.41,53,67,9.73,MR,1607313001
parangan,5.08,119.94,84.02,73,61,4.34,PH,1607313001
warwick,41.7,-71.42,30.99,63,1,10.29,US,1607313001
port elizabeth,-33.92,25.57,66.2,93,90,14.99,ZA,1607313001
greeley,40.42,-104.71,39.0,46,1,6.93,US,1607313001
morondava,-20.28,44.28,81.73,75,1,8.21,MG,1607313001
chumikan,54.72,135.31,6.55,86,97,20.27,RU,1607313001
prince george,53.92,-122.75,42.8,84,90,21.92,CA,1607313001
mangrol,21.12,70.12,79.59,42,38,9.35,IN,1607313001
jamestown,42.1,-79.24,28.99,97,90,6.93,US,1607313001
pendleton,45.67,-118.79,32.0,100,90,11.41,US,1607313001
shache,38.42,77.24,28.17,88,100,6.04,CN,1607313001
dothan,31.22,-85.39,54.0,81,90,9.17,US,1607313001
tocopilla,-22.09,-70.2,63.72,58,17,0.98,CL,1607313001
bereznehuvate,47.31,32.85,23.43,86,0,15.75,UA,1607313001
seoul,37.57,126.98,44.6,36,20,6.93,KR,1607313001
rapid valley,44.06,-103.15,41.0,50,1,3.36,US,1607313001
yellowknife,62.46,-114.35,15.8,92,90,3.36,CA,1607313001
ostrovnoy,68.05,39.51,28.33,98,100,2.39,RU,1607313001
palmas,-10.21,-48.36,73.4,83,40,8.05,BR,1607313001
bontang,0.13,117.5,85.87,69,100,6.2,ID,1607313001
athabasca,54.72,-113.29,30.2,68,75,2.24,CA,1607313001
maragogi,-9.01,-35.22,75.04,80,31,6.87,BR,1607313001
teya,60.38,92.63,9.37,90,100,16.04,RU,1607313001
vao,-22.67,167.48,77.61,87,16,18.39,NC,1607313001
barra do garcas,-15.89,-52.26,72.16,88,90,0.85,BR,1607313001
phuthaditjhaba,-28.52,28.82,57.81,73,14,4.14,ZA,1607313001
thunder bay,48.4,-89.32,30.2,86,90,6.93,CA,1607313001
dalmeny,52.33,-106.77,21.0,78,5,11.41,CA,1607313001
nizhniy tsasuchey,50.52,115.13,14.81,78,0,15.86,RU,1607313001
boa vista,2.82,-60.67,80.6,74,40,4.7,BR,1607313001
petauke,-14.24,31.33,70.27,83,100,6.33,ZM,1607313001
talnakh,69.49,88.4,12.2,85,75,13.42,RU,1607313001
kaeo,-35.1,173.78,75.0,75,77,8.99,NZ,1607313001
gat,31.61,34.76,59.0,100,24,1.01,IL,1607313001
gurupa,-1.41,-51.64,74.39,92,81,3.22,BR,1607313001
taikang,46.83,124.42,18.77,72,0,11.72,CN,1607313001
alexandria,31.22,29.96,62.1,44,98,15.77,EG,1607313001
bethel,41.37,-73.41,30.2,58,1,5.82,US,1607313001
sterling,39.01,-77.43,33.01,92,1,3.36,US,1607313001
lorengau,-2.02,147.27,86.54,63,100,8.43,PG,1607313001
coquimbo,-29.95,-71.34,55.4,87,56,6.93,CL,1607313001
tamuin,21.98,-98.75,57.9,62,93,2.37,MX,1607313001
huautla,21.03,-98.28,56.73,67,100,1.12,MX,1607313001
deputatskiy,69.3,139.9,-29.76,83,46,0.58,RU,1607313001
stawell,-37.05,142.77,57.6,54,99,15.95,AU,1607313001
kloulklubed,7.04,134.26,84.2,79,75,5.82,PW,1607313001
dikson,73.51,80.55,-6.36,93,59,9.71,RU,1607313001
abnub,27.27,31.15,60.31,32,2,9.35,EG,1607313001
aswan,24.09,32.91,58.35,34,1,3.18,EG,1607313001
touros,-5.2,-35.46,77.0,88,40,6.93,BR,1607313001
kavieng,-2.57,150.8,85.51,67,11,11.56,PG,1607313001
zhezkazgan,47.8,67.71,-3.53,92,77,9.08,KZ,1607313001
ambilobe,-13.2,49.05,79.61,70,26,3.67,MG,1607313001
neuquen,-38.95,-68.06,82.4,28,0,6.93,AR,1607313001
ulaangom,49.98,92.07,1.0,89,42,4.54,MN,1607313001
nemuro,43.32,145.57,44.6,45,20,12.75,JP,1607313001
ballina,-28.87,153.57,86.0,69,100,12.75,AU,1607313001
bafoulabe,13.81,-10.83,73.0,34,0,3.69,ML,1607313001
sistranda,63.73,8.83,35.6,80,0,8.05,NO,1607313001
palmer,42.16,-72.33,28.99,63,20,10.29,US,1607313001
berlevag,70.86,29.09,31.23,89,99,3.11,NO,1607313001
fairbanks,64.84,-147.72,8.6,71,90,5.82,US,1607313001
puerto escondido,15.85,-97.07,78.8,74,40,3.36,MX,1607313001
taoudenni,22.68,-3.98,55.08,45,0,4.5,ML,1607313001
yokadouma,3.52,15.05,67.66,79,39,1.81,CM,1607313001
jalapa,19.53,-96.92,54.03,90,98,1.59,MX,1607313001
cururupu,-1.83,-44.87,77.52,86,99,4.25,BR,1607313001
port hardy,50.7,-127.42,48.2,93,90,21.92,CA,1607313001
namibe,-15.2,12.15,66.4,75,3,7.31,AO,1607313001
sitka,57.05,-135.33,46.4,75,90,18.34,US,1607313001
nioro,13.35,-15.75,70.43,41,6,7.05,GM,1607313001
cherskiy,68.75,161.3,-1.05,93,100,1.16,RU,1607313001
gornopravdinsk,60.05,69.9,15.58,97,100,7.36,RU,1607313001
cap malheureux,-19.98,57.61,80.01,71,8,8.01,MU,1607313001
viedma,-40.81,-63.0,75.99,23,95,5.01,AR,1607313001
vagur,61.47,-6.81,43.38,75,41,25.48,FO,1607313001
lazaro cardenas,17.96,-102.2,76.12,79,91,3.91,MX,1607313001
fort abbas,29.19,72.85,71.83,28,0,5.08,PK,1607313001
la baule-escoublac,47.29,-2.36,32.0,74,98,3.36,FR,1607313001
anadyr,64.75,177.48,17.6,78,20,11.18,RU,1607313001
saint-philippe,-21.36,55.77,82.4,69,0,3.36,RE,1607313001
sumbe,-11.21,13.84,75.51,84,99,4.88,AO,1607313001
sisimiut,66.94,-53.67,25.23,95,100,13.62,GL,1607313001
moscow,55.75,37.62,15.01,85,0,4.47,RU,1607313001
bathsheba,13.22,-59.52,78.8,74,20,13.87,BB,1607313001
pisco,-13.7,-76.22,64.4,88,0,13.87,PE,1607313001
pevek,69.7,170.31,4.05,93,98,2.04,RU,1607313001
lasa,46.62,10.7,36.0,92,75,4.7,IT,1607313001
pacific grove,36.62,-121.92,52.0,87,1,9.17,US,1607313001
uvat,59.14,68.9,14.45,97,100,7.29,RU,1607313001
razole,16.48,81.83,80.31,62,33,7.72,IN,1607313001
arcata,40.87,-124.08,46.99,87,1,4.7,US,1607313001
marystown,47.17,-55.15,44.71,84,84,4.07,CA,1607313001
toamasina,-18.17,49.38,73.4,100,20,1.12,MG,1607313001
zwedru,6.07,-8.13,70.9,97,4,1.41,LR,1607313001
emerald,-23.53,148.17,102.2,27,1,12.75,AU,1607313001
rocha,-34.48,-54.33,50.43,87,0,3.33,UY,1607313001
mizdah,31.45,12.98,41.63,60,0,9.22,LY,1607313001
aqtobe,50.28,57.21,5.0,84,90,4.47,KZ,1607313001
high level,58.52,-117.14,28.4,100,40,3.36,CA,1607313001
todi,42.78,12.4,46.99,87,75,1.01,IT,1607313001
mumbwa,-14.98,27.06,66.43,92,100,2.13,ZM,1607313001
kenora,49.82,-94.43,26.6,92,90,3.36,CA,1607313001
camrose,53.02,-112.84,30.0,68,47,3.0,CA,1607313001
tucupita,9.06,-62.05,72.41,98,88,2.55,VE,1607313001
sao filipe,14.9,-24.5,75.47,73,73,12.68,CV,1607313001
wageningen,51.97,5.67,39.99,100,75,8.05,NL,1607313001
kolobrzeg,54.18,15.58,37.99,84,100,23.85,PL,1607313001
karpathos,35.51,27.21,64.4,82,82,13.87,GR,1607313001
seddon,-37.81,144.89,59.0,58,75,24.16,AU,1607313001
gao,16.64,1.64,72.21,26,21,7.99,ML,1607313001
axim,4.87,-2.24,78.49,84,0,5.88,GH,1607313001
fayaoue,-20.65,166.53,79.68,82,24,14.2,NC,1607313001
aklavik,68.22,-135.01,-5.8,83,100,1.7,CA,1607313001
iqaluit,63.75,-68.51,14.0,72,90,10.29,CA,1607313001
akdepe,42.06,59.38,5.0,71,0,9.17,TM,1607313001
nyimba,-14.56,30.81,71.87,88,100,1.63,ZM,1607313001
san patricio,28.02,-97.52,55.4,81,1,5.82,US,1607313001
bodden town,19.28,-81.25,78.01,94,0,4.29,KY,1607313001
hasaki,35.73,140.83,63.0,67,20,3.36,JP,1607313001
kodiak,57.79,-152.41,41.0,93,90,14.99,US,1607313001
fort saint james,54.43,-124.25,36.84,86,100,7.87,CA,1607313001
colares,38.8,-9.45,57.0,100,53,20.58,PT,1607313001
belaya gora,68.53,146.42,-23.35,87,100,1.12,RU,1607313001
maceio,-9.67,-35.74,71.6,94,20,4.7,BR,1607313001
kavaratti,10.57,72.64,84.2,79,90,5.82,IN,1607313001
bam,29.11,58.36,57.61,57,2,2.55,IR,1607313001
saint george,37.1,-113.58,42.8,20,1,2.37,US,1607313001
medea,36.26,2.75,46.4,81,20,3.36,DZ,1607313001
puerto colombia,10.99,-74.95,80.6,88,20,10.29,CO,1607313001
guilin,25.28,110.29,53.6,62,90,11.18,CN,1607313001
novyye burasy,52.13,46.07,10.09,88,0,3.42,RU,1607313001
takoradi,4.88,-1.76,78.4,84,0,6.33,GH,1607313001
banswada,18.38,77.88,74.53,42,3,2.08,IN,1607313001
samarinda,-0.5,117.15,89.13,61,100,2.04,ID,1607313001
agustin codazzi,10.03,-73.24,74.79,83,68,3.38,CO,1607313001
victoria,22.29,114.16,72.0,59,0,1.99,HK,1607313001
itarema,-2.92,-39.92,79.21,82,93,11.7,BR,1607313001
chuy,-33.7,-53.46,54.9,78,2,4.03,UY,1607313001
robertsport,6.75,-11.37,79.27,82,9,7.2,LR,1607313001
harper,4.38,-7.72,77.72,81,8,4.03,LR,1607313001
ziway,7.93,38.72,64.31,59,3,13.49,ET,1607313001
saldanha,-33.01,17.94,59.0,93,37,10.29,ZA,1607313001
konevo,62.12,39.32,24.13,93,55,8.81,RU,1607313001
vestmannaeyjar,63.44,-20.27,42.22,77,100,29.97,IS,1607313001
husavik,66.04,-17.34,19.4,79,0,12.39,IS,1607313001
mombetsu,44.35,143.35,35.6,80,75,14.99,JP,1607313001
jardim,-21.48,-56.14,67.23,84,51,2.93,BR,1607313001
pozega,45.34,17.69,46.99,87,40,3.36,HR,1607313001
kirkwood,38.58,-90.41,39.99,69,90,3.27,US,1607313001
north bend,43.41,-124.22,46.99,100,1,6.93,US,1607313001
henties bay,-22.12,14.28,61.0,85,12,2.66,NA,1607313001
komsomolskiy,40.43,71.72,30.2,86,100,4.7,UZ,1607313001
khomutovka,51.92,34.56,16.27,93,0,10.98,RU,1607313001
chokurdakh,70.63,147.92,-19.39,88,99,2.93,RU,1607313001
ovsyanka,55.96,92.55,17.6,67,40,13.42,RU,1607313001
gushikawa,26.35,127.87,75.2,83,40,11.41,JP,1607313001
yuci,37.68,112.73,26.6,32,0,11.18,CN,1607313001
paoua,7.24,16.44,68.95,35,49,2.42,CF,1607313001
melendugno,40.27,18.34,51.8,93,75,4.7,IT,1607313001
ulladulla,-35.35,150.47,78.8,22,0,24.16,AU,1607313001
old town,50.09,14.42,48.0,75,40,18.34,CZ,1607313001
sorland,67.67,12.69,37.81,80,86,9.64,NO,1607313001
winnemucca,40.97,-117.74,35.6,64,1,5.82,US,1607313001
valdosta,30.83,-83.28,55.4,66,20,5.82,US,1607313001
mazagao,-0.12,-51.29,78.8,100,40,4.7,BR,1607313001
menzelinsk,55.73,53.1,3.2,84,0,15.66,RU,1607313001
lompoc,34.64,-120.46,53.6,87,90,3.36,US,1607313001
belton,38.81,-94.53,35.6,80,1,5.82,US,1607313001
semey,50.41,80.23,-16.6,82,0,4.47,KZ,1607313001
fallon,39.47,-118.78,37.0,47,1,6.93,US,1607313001
akoupe,6.39,-3.9,70.95,99,21,2.39,CI,1607313001
larsnes,62.2,5.58,37.99,90,100,9.15,NO,1607313001
bumba,2.18,22.47,71.06,81,18,2.86,CD,1607313001
half moon bay,37.46,-122.43,53.6,66,40,3.36,US,1607313001
fram,-26.98,-55.88,61.74,97,0,3.76,PY,1607313001
anchorage,61.22,-149.9,25.0,72,40,4.7,US,1607313001
aykhal,66.0,111.5,-9.4,83,90,6.71,RU,1607313001
gasa,31.5,34.47,59.0,100,33,1.01,PS,1607313001
kudahuvadhoo,2.67,72.89,82.53,76,72,12.24,MV,1607313001
mizan teferi,6.98,35.58,64.31,79,80,2.55,ET,1607313001
ancud,-41.87,-73.82,51.8,93,0,2.24,CL,1607313001
araguacu,-12.93,-49.83,72.91,85,95,2.59,BR,1607313001
bykovo,55.64,38.08,14.0,92,0,4.47,RU,1607313001
alappuzha,9.49,76.33,80.64,81,88,5.82,IN,1607313001
atikokan,48.76,-91.62,25.2,96,100,2.91,CA,1607313001
buea,4.15,9.24,78.8,94,75,1.12,CM,1607313001
vrangel,42.73,133.08,28.74,81,0,10.94,RU,1607313001
kieta,-6.22,155.63,84.72,71,69,4.63,PG,1607313001
champerico,14.3,-91.92,68.0,95,67,7.56,GT,1607313001
mana,5.66,-53.78,77.83,87,99,8.79,GF,1607313001
linxia,35.6,103.21,27.59,86,99,2.04,CN,1607313001
karpinsk,59.77,60.01,25.84,95,95,8.37,RU,1607313001
eureka,40.8,-124.16,46.99,87,1,4.7,US,1607313001
isangel,-19.55,169.27,86.0,74,75,5.82,VU,1607313001
labytnangi,66.66,66.42,30.07,94,0,20.04,RU,1607313001
havoysund,71.0,24.66,28.4,86,40,17.22,NO,1607313001
marzuq,14.4,46.47,67.03,57,0,1.43,YE,1607313001
beloha,-25.17,45.05,76.21,76,36,11.68,MG,1607313001
luganville,-15.53,167.17,86.0,74,40,4.7,VU,1607313001
kamina,-8.74,24.99,61.75,98,58,2.86,CD,1607313001
san cristobal,7.77,-72.22,64.38,90,92,2.24,VE,1607313001
rangia,26.47,91.63,66.2,88,75,9.4,IN,1607313001
visby,57.64,18.3,45.0,86,100,14.99,SE,1607313001
nouadhibou,20.93,-17.03,64.4,72,71,19.46,MR,1607313001
neiafu,-18.65,-173.98,82.4,83,75,11.41,TO,1607313001
san quintin,30.48,-115.95,58.48,63,0,7.43,MX,1607313001
mae hong son,19.3,97.97,73.4,69,20,2.24,TH,1607313001
togur,58.36,82.83,12.9,94,100,13.85,RU,1607313001
kruisfontein,-34.0,24.73,66.99,93,100,10.0,ZA,1607313001
richards bay,-28.78,32.04,71.65,90,56,6.29,ZA,1607313001
petropavlovsk-kamchatskiy,53.05,158.65,15.8,72,40,6.71,RU,1607313001
treinta y tres,-33.23,-54.38,50.76,88,0,4.18,UY,1607313001
joshimath,30.57,79.57,57.04,29,13,0.74,IN,1607313001
vila velha,-20.33,-40.29,77.0,83,75,8.05,BR,1607313001
saint andrews,34.05,-81.13,48.2,81,75,3.36,US,1607313001
alice springs,-23.7,133.88,84.99,23,75,11.41,AU,1607313001
sao joao da barra,-21.64,-41.05,75.27,87,100,16.11,BR,1607313001
nuuk,64.18,-51.72,30.2,92,100,17.22,GL,1607313001
severnyy,50.68,36.55,12.2,85,0,15.66,RU,1607313001
eura,61.13,22.13,37.4,100,90,11.41,FI,1607313001
duluth,46.78,-92.11,34.0,86,90,3.36,US,1607313001
caravelas,-17.71,-39.25,73.44,86,75,5.88,BR,1607313001
oyama,36.3,139.8,63.0,58,20,4.7,JP,1607313001
mandapam,9.28,79.12,79.81,84,92,10.8,IN,1607313001
tarko-sale,64.92,77.78,27.0,91,99,3.0,RU,1607313001
aberystwyth,52.42,-4.08,35.01,100,71,4.32,GB,1607313001
coihaique,-45.58,-72.07,62.6,59,0,2.24,CL,1607313001
kommunar,59.62,30.39,28.0,58,0,6.71,RU,1607313001
riyadh,24.69,46.72,51.8,81,0,5.82,SA,1607313001
leo,11.1,-2.1,76.37,31,87,0.89,BF,1607313001
rawson,-43.3,-65.1,82.26,24,51,22.64,AR,1607313001
ponto novo,-10.86,-40.13,69.78,85,0,4.63,BR,1607313001
paraguari,-25.62,-57.15,71.6,64,0,5.82,PY,1607313001
jurado,7.11,-77.76,76.5,87,99,2.42,CO,1607313001
leh,34.17,77.58,19.24,76,92,2.15,IN,1607313001
mountain home,43.13,-115.69,23.0,100,1,6.93,US,1607313001
necochea,-38.55,-58.74,62.01,56,0,16.13,AR,1607313001
gizo,-8.1,156.84,85.1,69,78,1.72,SB,1607313001
am timan,11.03,20.28,68.67,26,47,5.57,TD,1607313001
maamba,-17.37,27.15,70.43,91,100,1.05,ZM,1607313001
hurghada,27.26,33.81,57.2,50,0,0.94,EG,1607313001
ranong,9.97,98.63,84.2,66,20,5.82,TH,1607313001
rio verde de mato grosso,-18.92,-54.84,73.42,83,80,5.35,BR,1607313001
baruun-urt,46.68,113.28,0.34,84,0,14.47,MN,1607313001
bundaberg,-24.85,152.35,89.6,52,1,26.4,AU,1607313001
brae,60.4,-1.35,44.6,81,63,13.87,GB,1607313001
quesnel,53.0,-122.5,44.6,80,90,10.29,CA,1607313001
nizwa,22.93,57.53,71.69,41,65,1.12,OM,1607313001
odienne,9.51,-7.57,73.09,56,15,3.67,CI,1607313001
ekhabi,53.51,142.97,10.2,89,11,12.97,RU,1607313001
acajutla,13.59,-89.83,70.0,88,21,4.05,SV,1607313001
orumiyeh,37.55,45.08,32.0,96,90,2.24,IR,1607313001
arnedo,42.22,-2.1,42.01,93,90,4.7,ES,1607313001
elizabeth city,36.29,-76.25,39.2,86,1,0.78,US,1607313001
austin,30.27,-97.74,55.4,37,1,4.7,US,1607313001
puteyets,65.17,57.09,32.54,97,100,7.94,RU,1607313001
nelson bay,-32.72,152.15,84.99,21,0,23.04,AU,1607313001
namatanai,-3.67,152.43,85.12,70,40,11.14,PG,1607313001
mogadishu,2.04,45.34,79.99,74,0,10.29,SO,1607313001
ondangwa,-17.92,15.95,72.12,30,0,10.04,NA,1607313001
caucaia,-3.74,-38.65,80.6,83,40,10.29,BR,1607313001
ponta delgada,37.73,-25.67,55.4,82,40,4.7,PT,1607313001
nynashamn,58.9,17.95,44.01,72,100,19.51,SE,1607313001
orotukan,62.27,151.7,-14.17,87,99,2.01,RU,1607313001
takayama,36.13,137.25,57.99,66,75,2.24,JP,1607313001
gorontalo,0.54,123.06,88.57,62,100,4.36,ID,1607313001
new plymouth,-39.07,174.08,60.01,97,100,8.99,NZ,1607313001
nanortalik,60.14,-45.24,29.26,93,22,6.6,GL,1607313001
ayagoz,47.97,80.44,7.66,92,19,11.39,KZ,1607313001
acapulco,16.86,-99.89,82.4,74,40,4.7,MX,1607313001
saint-denis,48.92,2.33,36.0,81,90,2.24,FR,1607313001
machakos,-1.52,37.27,59.7,98,47,1.48,KE,1607313001
rimouski,48.45,-68.52,28.4,100,90,27.51,CA,1607313001
the valley,18.22,-63.06,78.8,74,20,6.93,AI,1607313001
college,64.86,-147.8,8.6,71,90,5.82,US,1607313001
chai badan,15.2,101.13,78.57,55,43,12.68,TH,1607313001
antofagasta,-23.65,-70.4,62.6,72,75,5.82,CL,1607313001
lloro,5.5,-76.55,73.35,96,99,1.14,CO,1607313001
yinchuan,38.47,106.27,20.3,85,0,4.43,CN,1607313001
balabac,7.99,117.06,83.91,77,97,9.33,PH,1607313001
kefamenanu,-9.45,124.48,87.15,58,87,8.99,ID,1607313001
halifax,44.65,-63.57,39.2,78,98,19.46,CA,1607313001
chimoio,-19.12,33.48,68.0,100,75,4.03,MZ,1607313001
asau,46.43,26.4,30.0,14,100,4.85,RO,1607313001
bandarbeyla,9.49,50.81,76.55,72,54,10.31,SO,1607313001
yulara,-25.24,130.99,86.0,16,66,10.29,AU,1607313001
guerrero negro,27.98,-114.06,61.03,61,68,9.48,MX,1607313001
prince rupert,54.32,-130.32,50.0,87,90,6.93,CA,1607313001
kirovsk,48.64,38.64,15.37,86,0,17.98,UA,1607313001
fort nelson,58.81,-122.7,19.4,92,75,3.36,CA,1607313001
churapcha,62.0,132.43,-9.02,90,100,6.13,RU,1607313001
camacha,33.08,-16.33,59.0,87,40,9.17,PT,1607313001
nahavand,34.19,48.38,33.06,94,92,1.81,IR,1607313001
hailar,49.2,119.7,9.91,87,0,15.84,CN,1607313001
meulaboh,4.14,96.13,84.51,65,100,1.14,ID,1607313001
bilma,18.69,12.92,67.28,25,16,1.43,NE,1607313001
tekeli,44.83,78.82,23.97,80,20,5.26,KZ,1607313001
lac du bonnet,50.25,-96.06,21.2,92,80,4.7,CA,1607313001
martapura,-3.42,114.85,86.0,70,100,3.36,ID,1607313001
darhan,49.49,105.92,6.19,86,0,6.24,MN,1607313001
gritsovskiy,54.14,38.16,18.37,91,0,7.47,RU,1607313001
hargeysa,9.56,44.06,62.64,81,0,9.91,SO,1607313001
san juan,-31.54,-68.54,75.31,33,11,5.17,AR,1607313001
ugoofaaru,5.67,73.0,82.08,77,96,10.13,MV,1607313001
lusambo,-4.97,23.45,67.77,96,100,0.0,CD,1607313001
urumqi,43.8,87.6,10.4,92,90,2.24,CN,1607313001
szprotawa,51.57,15.54,43.0,82,17,8.01,PL,1607313001
sosnovo-ozerskoye,52.52,111.54,5.49,91,67,14.72,RU,1607313001
troitsko-pechorsk,62.71,56.2,25.66,98,98,5.84,RU,1607313001
monte patria,-30.69,-70.95,57.04,68,0,0.74,CL,1607313001
visnes,59.36,5.22,41.0,86,90,10.29,NO,1607313001
moron,-34.65,-58.62,68.0,72,0,3.0,AR,1607313001
grand gaube,-20.01,57.66,80.01,71,6,8.01,MU,1607313001
xining,36.62,101.77,22.87,79,20,2.84,CN,1607313001
berdigestyakh,62.1,126.7,-1.3,92,100,4.88,RU,1607313001
mendi,-6.18,143.65,64.8,91,100,2.62,PG,1607313001
praia da vitoria,38.73,-27.07,54.0,100,20,8.55,PT,1607313001
kabompo,-13.59,24.2,63.43,97,100,1.99,ZM,1607313001
bac lieu,9.29,105.72,79.5,75,100,5.06,VN,1607313001
minusinsk,53.71,91.69,-2.2,84,20,2.42,RU,1607313001
peniche,39.36,-9.38,59.0,79,65,15.99,PT,1607313001
wiset chai chan,14.6,100.36,81.0,55,20,7.0,TH,1607313001
ahipara,-35.17,173.17,71.17,74,75,13.65,NZ,1607313001
puri,19.8,85.85,71.6,83,0,2.24,IN,1607313001
cody,44.53,-109.06,39.99,29,1,8.12,US,1607313001
san jose,37.34,-121.89,51.01,79,67,2.86,US,1607313001
angoram,-4.06,144.07,83.93,82,85,1.52,PG,1607313001
kumeny,58.11,49.92,16.21,91,30,10.89,RU,1607313001
shagonar,51.53,92.8,-5.8,88,98,2.62,RU,1607313001
tsumeb,-19.23,17.72,71.49,37,26,7.16,NA,1607313001
agboville,5.93,-4.21,72.39,97,11,2.46,CI,1607313001
xapuri,-10.65,-68.5,70.39,97,100,2.21,BR,1607313001
atambua,-9.11,124.89,84.25,64,98,5.61,ID,1607313001
quatre cocos,-20.21,57.76,80.01,83,40,8.05,MU,1607313001
port-cartier,50.03,-66.87,28.4,79,100,16.11,CA,1607313001
pochutla,15.74,-96.47,78.8,74,40,3.36,MX,1607313001
aasiaat,68.71,-52.87,18.27,90,99,8.72,GL,1607313001
raahe,64.68,24.48,36.0,100,90,6.93,FI,1607313001
vila,42.03,-8.16,48.99,96,100,11.99,PT,1607313001
inuvik,68.35,-133.72,-5.8,83,100,3.62,CA,1607313001
arman,59.7,150.17,9.36,92,83,8.12,RU,1607313001
nantucket,41.28,-70.1,35.6,59,1,14.99,US,1607313001
westerland,54.91,8.3,43.0,100,100,9.17,DE,1607313001
alliance,40.92,-81.11,28.99,79,73,1.01,US,1607313001
pangoa,-12.12,-73.0,67.21,97,96,2.3,PE,1607313001
solnechnyy,50.72,136.63,14.97,84,0,2.73,RU,1607313001
cayenne,4.93,-52.33,75.2,100,0,7.07,GF,1607313001
praia,14.92,-23.51,75.2,69,75,14.99,CV,1607313001
kokopo,-4.35,152.26,86.99,64,0,8.25,PG,1607313001
van,38.49,43.38,30.2,92,75,3.36,TR,1607313001
buin,-33.73,-70.75,64.99,48,0,10.29,CL,1607313001
nanzhang,31.78,111.84,51.4,55,67,9.78,CN,1607313001
merauke,-8.47,140.33,87.13,67,66,10.47,ID,1607313001
moose factory,51.26,-80.61,17.6,92,90,3.36,CA,1607313001
shenjiamen,29.96,122.3,58.64,70,96,12.41,CN,1607313001
sohbatpur,28.52,68.54,70.7,29,0,6.6,PK,1607313001
broken hill,-31.95,141.43,71.6,30,75,21.92,AU,1607313001
zabol,32.25,67.25,44.44,69,31,4.92,AF,1607313001
srednekolymsk,67.45,153.68,-21.37,86,100,2.39,RU,1607313001
monrovia,6.3,-10.8,78.58,84,15,5.1,LR,1607313001
santa pola,38.19,-0.57,51.8,53,0,14.99,ES,1607313001
mazamari,-11.33,-74.53,69.35,81,100,1.5,PE,1607313001
awjilah,29.11,21.29,58.98,88,92,12.01,LY,1607313001
achikulak,44.55,44.84,29.35,95,99,19.1,RU,1607313001
biloela,-24.42,150.5,99.93,27,0,11.65,AU,1607313001
tucurui,-3.77,-49.67,75.16,92,100,2.77,BR,1607313001
flinders,-34.58,150.86,84.0,33,0,8.99,AU,1607313001
kuleshovka,47.08,39.56,15.01,78,0,21.99,RU,1607313001
terra santa,-2.1,-56.49,75.13,89,91,1.54,BR,1607313001
kalbugan,6.96,124.66,92.77,54,78,1.86,PH,1607313001
blackwater,-23.58,148.88,100.63,27,0,9.19,AU,1607313001
koungou,-12.73,45.2,80.6,83,40,4.7,YT,1607313001
tiznit,29.58,-9.5,50.58,64,0,1.32,MA,1607313001
conceicao do mato dentro,-19.04,-43.42,66.99,95,92,1.95,BR,1607313001
praya,14.92,-23.51,75.2,69,75,14.99,CV,1607313001
debe,10.2,-61.45,75.99,92,14,6.69,TT,1607313001
sept-iles,50.2,-66.38,28.4,79,100,16.11,CA,1607313001
olafsvik,64.89,-23.71,32.74,96,100,14.38,IS,1607313001
ketchikan,55.34,-131.65,46.4,93,75,13.87,US,1607313001
nassau,40.75,-73.58,34.0,55,1,8.05,US,1607313001
puerto del rosario,28.5,-13.86,60.8,77,40,11.41,ES,1607313001
liverpool,53.41,-2.98,41.0,93,94,4.7,GB,1607313001
salvador,13.83,-88.92,77.0,94,0,4.7,SV,1607313001
mayo,38.89,-76.51,35.6,64,1,8.05,US,1607313001
divnomorskoye,44.5,38.14,36.79,79,20,15.26,RU,1607313001
